     3.03           OBSERVATION DATA    M (MIXED)           RINEX VERSION / TYPE
teqc  2010Oct21                         20180406 12:07:25UTCCOMMENT             
gfzrnx-1.05-6819    FILE CONVERSION     20180410 140918 UTC PGM / RUN BY / DATE 
MSXP|IAx86-PII|bcc32 5.0|MSWin95->XP|486/DX+                COMMENT             
teqc  2017Jul18     gpsops              20171023 00:07:43UTCCOMMENT             
Linux 2.6.32-573.12.1.x86_64|x86_64|gcc -static|Linux 64|=+ COMMENT             
BIT 2 OF LLI FLAGS DATA COLLECTED UNDER A/S CONDITION       COMMENT             
GOLD                                                        MARKER NAME         
40405S031                                                   MARKER NUMBER       
DSN                 JPL                                     OBSERVER / AGENCY   
LT2380              JPS EGGDT           2.7.0               REC # / TYPE / VERS 
401-B               AOAD/M_T        NONE                    ANT # / TYPE        
 -2353614.3160 -4641385.3523  3676976.4340                  APPROX POSITION XYZ 
        0.0254        0.0000        0.0000                  ANTENNA: DELTA H/E/N
     1     1                                                WAVELENGTH FACT L1/2
    18                                                      LEAP SECONDS        
                                                            COMMENT             
This data is provided as a public service by NASA/JPL.      COMMENT             
No warranty is expressed or implied regarding suitability   COMMENT             
for use.  For further information, contact:                 COMMENT             
Dave Stowers, NASA/JPL m/s 238-600                          COMMENT             
4800 Oak Grove Drive, Pasadena CA 91109 USA                 COMMENT             
                                                            COMMENT             
Forced Modulo Decimation to 30 seconds                      COMMENT             
 SNR is mapped to RINEX snr flag value [0-9]                COMMENT             
  L1 & L2: min(max(int(snr_dBHz/6), 0), 9)                  COMMENT             
pseudorange smoothing corrections not applied               COMMENT             
teqc edited: all GLONASS satellites excluded                COMMENT             
                                                            COMMENT             
**********************************************************  COMMENT             
*              WARNING - FORMAT CONVERSION               *  COMMENT             
*  ----------------------------------------------------  *  COMMENT             
*  The data values (observation, loss of lock indicator  *  COMMENT             
*      (LLI), signal strength) are left as they are.     *  COMMENT             
*  The LLI meaning differs between versions 2 and 3 and  *  COMMENT             
*    the Interpretation of bit 1 and 2 has to be used    *  COMMENT             
*                  with caution !!!                      *  COMMENT             
**********************************************************  COMMENT             
                                                            COMMENT             
RINEX 2 -> 3 TYPE CONVERSION DETAILS:                       COMMENT             
-------------------------------------                       COMMENT             
   G C1  -> C1C                                             COMMENT             
   G P1  -> C1W                                             COMMENT             
   G P2  -> C2W                                             COMMENT             
-------------------------------------                       COMMENT             
                                                            COMMENT             
G    7 C1C L1  L2  C1W C2W S1  S2                           SYS / # / OBS TYPES 
    31                                                      # OF SATELLITES     
   G01  1017  1017   992   992   992  1017   992            PRN / # OF OBS      
   G02   817   817   816   816   816   817   816            PRN / # OF OBS      
   G03   749   749   748   748   748   749   748            PRN / # OF OBS      
   G05   979   979   977   977   977   979   977            PRN / # OF OBS      
   G06   907   907   905   905   905   907   905            PRN / # OF OBS      
   G07   916   916   916   916   916   916   916            PRN / # OF OBS      
   G08  1066  1066  1064  1064  1064  1066  1064            PRN / # OF OBS      
   G09   809   809   807   807   807   809   807            PRN / # OF OBS      
   G10   919   919   919   919   919   919   919            PRN / # OF OBS      
   G11  1071  1071  1068  1068  1068  1071  1068            PRN / # OF OBS      
   G12   771   771   771   771   771   771   771            PRN / # OF OBS      
   G13  1047  1047  1045  1045  1045  1047  1045            PRN / # OF OBS      
   G14   865   865   863   863   863   865   863            PRN / # OF OBS      
   G15  1042  1042  1041  1041  1041  1042  1041            PRN / # OF OBS      
   G16  1008  1008  1007  1007  1007  1008  1007            PRN / # OF OBS      
   G17   806   806   805   805   805   806   805            PRN / # OF OBS      
   G18   917   917   916   916   916   917   916            PRN / # OF OBS      
   G19   821   821   820   820   820   821   820            PRN / # OF OBS      
   G20   779   779   778   778   778   779   778            PRN / # OF OBS      
   G21   925   925   925   925   925   925   925            PRN / # OF OBS      
   G22   774   774   773   773   773   774   773            PRN / # OF OBS      
   G23   879   879   879   879   879   879   879            PRN / # OF OBS      
   G24  1034  1034  1032  1032  1032  1034  1032            PRN / # OF OBS      
   G25   945   945   944   944   944   945   944            PRN / # OF OBS      
   G26  1030  1030  1030  1030  1030  1030  1030            PRN / # OF OBS      
   G27  1046  1046  1044  1044  1044  1046  1044            PRN / # OF OBS      
   G28   917   917   916   916   916   917   916            PRN / # OF OBS      
   G29   853   853   853   853   853   853   853            PRN / # OF OBS      
   G30   885   885   884   884   884   885   884            PRN / # OF OBS      
   G31   899   899   898   898   898   899   898            PRN / # OF OBS      
   G32   835   835   835   835   835   835   835            PRN / # OF OBS      
    30.000                                                  INTERVAL            
  2017    10    22     0     0    0.0000000     GPS         TIME OF FIRST OBS   
  2017    10    22    23    59   30.0000000     GPS         TIME OF LAST OBS    
                                                            END OF HEADER      
> 2017 10 22 00 00 00.0000000  0 11
G01  21986984.346   115542444.452 7  90033070.25546  21986984.271    21986990.820          47.000          40.0004
G03  24688719.546   129740119.035 5 101096220.16044  24688722.926    24688732.866          33.000          27.0004
G08  24911667.419   130911646.773 6 102009129.78843  24911666.756    24911677.199          38.000          22.0004
G10  22489865.015   118185083.477 7  92092299.65046  22489864.188    22489870.524          46.000          37.0004
G11  22074052.100   115999964.609 8  90389611.87246  22074051.670    22074055.163          48.000          37.0004
G14  20859208.957   109615980.949 8  85415073.23447  20859208.064    20859211.378          50.000          45.0004
G18  24687889.982   129735746.642 5 101092810.21542  24687888.248    24687895.846          35.000          16.0004
G22  22953018.062   120618978.727 7  93988845.87446  22953017.571    22953020.390          45.000          36.0004
G25  24887879.694   130786720.124 6 101911741.69843  24887879.380    24887887.900          37.000          18.0004
G31  20813515.084   109375854.360 8  85227979.76847  20813514.882    20813517.916          52.000          45.0004
G32  21476071.993   112857595.514 8  87941017.11947  21476072.129    21476077.449          53.000          46.0004
> 2017 10 22 00 00 30.0000000  0 11
G01  21976002.527   115484736.366 7  89988102.94746  21976002.519    21976009.477          46.000          41.0004
G03  24672043.256   129652465.607 6 101027918.84144  24672044.924    24672050.940          38.000          25.0004
G08  24926168.147   130987853.277 5 102068511.36543  24926166.400    24926178.746          35.000          20.0004
G10  22502151.098   118249652.317 7  92142613.00046  22502151.113    22502157.286          46.000          37.0004
G11  22074565.498   116002659.998 7  90391712.18546  22074564.516    22074568.082          47.000          37.0004
G14  20865249.912   109647726.186 8  85439809.78047  20865249.060    20865252.449          50.000          46.0004
G18  24702554.657   129812791.835 6 101152845.57841  24702551.978    24702554.540          38.000          11.0004
G22  22938538.139   120542882.833 7  93929550.38846  22938536.985    22938539.921          44.000          36.0004
G25  24879909.781   130744819.075 6 101879091.64743  24879908.982    24879916.268          40.000          23.0004
G31  20802518.701   109318066.494 8  85182950.29747  20802518.406    20802521.374          52.000          46.0004
G32  21486717.811   112913539.398 8  87984609.75047  21486717.960    21486723.280          52.000          46.0004
> 2017 10 22 00 01 00.0000000  0 11
G01  21965113.241   115427513.878 8  89943514.00146  21965113.526    21965119.977          48.000          40.0004
G03  24655356.292   129564776.203 6 100959589.58644  24655356.999    24655365.781          37.000          26.0004
G08  24940671.311   131064069.755 6 102127900.84343  24940671.721    24940679.733          38.000          21.0004
G10  22514483.967   118314457.738 7  92193110.70146  22514483.397    22514489.582          47.000          37.0004
G11  22075193.132   116005961.044 8  90394284.44046  22075192.753    22075196.242          48.000          38.0004
G14  20871338.970   109679723.947 8  85464743.10047  20871338.049    20871341.329          51.000          46.0004
G18  24717241.749   129889990.153 6 101213000.05142  24717241.202    24717248.154          37.000          17.0004
G22  22924069.656   120466846.340 7  93870301.18746  22924068.226    22924070.740          47.000          36.0004
G25  24872009.109   130703309.182 6 101846746.32844  24872009.145    24872016.909          39.000          25.0004
G31  20791623.612   109260817.042 8  85138340.37147  20791623.781    20791626.911          53.000          45.0004
G32  21497399.133   112969668.365 8  88028346.60447  21497399.048    21497404.317          53.000          46.0004
> 2017 10 22 00 01 30.0000000  0 11
G01  21954317.045   115370779.173 7  89899305.16046  21954317.052    21954323.672          47.000          40.0004
G03  24638663.957   129477051.474 6 100891232.76143  24638663.595    24638671.946          38.000          23.0004
G08  24955176.552   131140293.838 5 102187296.20243  24955174.655    24955186.143          34.000          18.0004
G10  22526861.003   118379499.792 7  92243792.80346  22526860.895    22526866.821          46.000          37.0004
G11  22075936.676   116009867.578 8  90397328.50146  22075936.256    22075939.829          49.000          37.0004
G14  20877475.230   109711972.744 8  85489872.02747  20877474.729    20877477.951          50.000          45.0004
G18  24731959.492   129967341.289 5 101273273.71342  24731957.569    24731960.582          31.000          15.0004
G22  22909610.920   120390870.792 7  93811099.47346  22909610.091    22909612.382          46.000          36.0004
G25  24864186.413   130662192.799 6 101814707.64743  24864184.362    24864192.936          40.000          23.0004
G31  20780832.919   109204108.501 8  85094151.93247  20780832.721    20780835.717          53.000          46.0004
G32  21508114.722   113025981.023 8  88072226.59647  21508114.829    21508120.232          53.000          46.0004
> 2017 10 22 00 02 00.0000000  0 11
G01  21943614.265   115314534.248 7  89855477.96546  21943614.473    21943621.044          47.000          41.0004
G03  24621964.504   129389292.182 6 100822848.99444  24621964.393    24621971.855          39.000          24.0004
G08  24969681.972   131216522.350 6 102246695.00143  24969682.533    24969691.817          38.000          22.0004
G10  22539282.737   118444778.335 7  92294659.17846  22539282.691    22539288.952          46.000          37.0004
G11  22076794.650   116014378.294 8  90400843.35146  22076794.413    22076798.313          48.000          38.0004
G14  20883659.819   109744471.104 8  85515195.41947  20883659.023    20883662.301          51.000          45.0004
G18  24746711.949   130044844.508 6 101333665.85743  24746709.307    24746714.113          38.000          18.0004
G22  22895165.975   120314957.212 7  93751946.05246  22895164.562    22895166.935          46.000          36.0004
G25  24856431.351   130621472.362 5 101782977.50242  24856432.903    24856441.920          33.000          17.0004
G31  20770144.866   109147942.482 8  85050386.23247  20770144.635    20770147.808          53.000          45.0004
G32  21518864.879   113082475.877 8  88116248.55647  21518865.375    21518870.892          52.000          46.0004
> 2017 10 22 00 02 30.0000000  0 11
G01  21933005.115   115258781.334 7  89812034.14146  21933004.826    21933011.347          46.000          41.0004
G03  24605258.016   129301499.026 6 100754438.79343  24605257.634    24605263.304          40.000          23.0004
G08  24984189.092   131292752.599 6 102306095.18943  24984187.948    24984196.625          39.000          20.0004
G10  22551749.675   118510293.536 7  92345709.95146  22551749.513    22551756.072          46.000          36.0004
G11  22077768.317   116019492.758 7  90404828.64846  22077767.945    22077771.221          47.000          37.0004
G14  20889891.121   109777217.586 8  85540712.15547  20889890.323    20889893.895          51.000          45.0004
G18  24761485.821   130122500.020 6 101394176.58241  24761486.208    24761488.344          37.000          10.0004
G22  22880731.249   120239106.852 7  93692841.89146  22880730.043    22880733.530          46.000          37.0004
G25  24848766.383   130581150.686 7 101751557.98043  24848764.351    24848767.577          44.000          20.0004
G31  20759560.071   109092321.090 8  85007044.91947  20759560.226    20759563.104          52.000          46.0004
G32  21529650.418   113139151.662 8  88160411.50547  21529650.495    21529655.963          51.000          46.0004
> 2017 10 22 00 03 00.0000000  0 11
G01  21922490.184   115203522.259 7  89768975.11546  21922489.476    21922495.832          46.000          40.0004
G03  24588544.480   129213672.566 6 100686002.76444  24588544.507    24588551.265          40.000          25.0004
G08  24998692.618   131368981.441 5 102365494.32843  24998693.284    24998704.453          35.000          20.0004
G10  22564262.979   118576045.076 7  92396944.89046  22564262.351    22564268.177          44.000          36.0004
G11  22078856.307   116025210.510 7  90409284.04146  22078855.730    22078859.373          47.000          37.0004
G14  20896169.286   109810210.662 8  85566421.04747  20896168.576    20896172.156          50.000          45.0004
G18  24776296.570   130200306.953 6 101454805.57743  24776291.888    24776297.953          36.000          18.0004
G22  22866310.207   120163320.885 7  93633787.91945  22866309.085    22866310.873          47.000          35.0004
G25  24841166.243   130541230.002 6 101720450.92144  24841166.652    24841175.036          38.000          26.0004
G31  20749080.210   109037246.260 8  84964129.47947  20749079.989    20749082.782          53.000          47.0004
G32  21540469.372   113196006.670 8  88204714.10947  21540469.602    21540475.064          52.000          45.0004
> 2017 10 22 00 03 30.0000000  0 11
G01  21912068.723   115148759.174 7  89726302.59046  21912068.545    21912074.906          47.000          41.0004
G03  24571825.969   129125813.762 6 100617541.33144  24571827.084    24571832.484          39.000          29.0004
G08  25013199.026   131445206.212 6 102424890.17043  25013198.974    25013210.354          36.000          19.0004
G10  22576819.988   118642032.952 7  92448363.99146  22576818.969    22576825.170          45.000          36.0004
G11  22080058.951   116031530.485 8  90414208.68746  22080058.265    22080062.205          49.000          38.0004
G14  20902494.689   109843449.301 8  85592321.27547  20902493.807    20902497.169          51.000          45.0004
G18  24791128.097   130278265.590 6 101515552.37342  24791127.950    24791129.955          38.000          14.0004
G22  22851900.587   120087600.872 7  93574785.32946  22851899.720    22851902.789          46.000          36.0004
G25  24833646.255   130501712.769 6 101689658.37644  24833645.482    24833654.670          37.000          24.0004
G31  20738703.761   108982720.057 8  84921641.57847  20738703.610    20738706.888          53.000          46.0004
G32  21551322.484   113253039.663 8  88249155.40047  21551322.593    21551328.173          52.000          45.0004
> 2017 10 22 00 04 00.0000000  0 11
G01  21901741.616   115094494.044 7  89684018.07346  21901741.607    21901748.383          47.000          41.0004
G03  24555101.712   129037923.107 6 100549055.25144  24555101.150    24555107.384          40.000          25.0004
G08  25027703.672   131521423.609 6 102484280.32143  25027703.125    25027712.046          36.000          20.0004
G10  22589421.156   118708257.129 7  92499967.21846  22589420.979    22589427.159          46.000          36.0004
G11  22081375.741   116038451.727 8  90419601.85746  22081375.459    22081378.934          48.000          37.0004
G14  20908865.916   109876931.860 8  85618411.57847  20908865.221    20908868.749          49.000          45.0004
G18  24805987.514   130356374.904 4 101576416.97342  24805988.586    24805994.036          29.000          14.0004
G22  22837503.569   120011946.753 7  93515834.11146  22837502.957    22837506.155          45.000          37.0004
G25  24826201.046   130462601.330 6 101659182.08743  24826200.220    24826213.098          36.000          21.0004
G31  20728433.185   108928744.020 8  84879582.35947  20728432.620    20728435.494          52.000          46.0004
G32  21562209.187   113310249.131 8  88293734.20247  21562209.318    21562214.617          50.000          45.0004
> 2017 10 22 00 04 30.0000000  0 11
G01  21891511.447   115040728.916 8  89642123.16246  21891511.143    21891517.516          49.000          41.0004
G03  24538369.634   128950001.619 6 100480545.02344  24538369.680    24538377.293          38.000          26.0004
G08  25042203.968   131597631.231 5 102543662.94343  25042204.213    25042213.888          35.000          19.0004
G10  22602067.950   118774717.527 7  92551754.50746  22602068.086    22602074.872          46.000          37.0004
G11  22082807.603   116045973.785 8  90425463.19846  22082806.683    22082810.268          48.000          37.0004
G14  20915283.414   109910656.501 8  85644690.52047  20915282.816    20915286.353          50.000          45.0004
G18  24820883.372   130434634.989 6 101637398.79343  24820883.771    24820888.727          37.000          19.0004
G22  22823120.856   119936360.389 7  93456935.65746  22823119.552    22823121.688          46.000          36.0004
G25  24818841.088   130423898.320 7 101629023.96744  24818840.051    24818847.515          43.000          25.0004
G31  20718266.583   108875320.393 8  84837953.57147  20718266.544    20718269.069          52.000          45.0004
G32  21573129.222   113367633.682 8  88338449.44047  21573129.164    21573134.611          52.000          45.0004
> 2017 10 22 00 05 00.0000000  0 11
G01  21881374.874   114987465.775 7  89600619.41546  21881374.979    21881381.468          47.000          41.0004
G03  24521632.927   128862049.980 6 100412011.33744  24521632.806    24521640.675          37.000          25.0004
G08  25056704.366   131673826.077 6 102603035.52843  25056704.517    25056714.832          38.000          21.0004
G10  22614760.698   118841414.095 7  92603725.82646  22614759.968    22614766.253          44.000          36.0004
G11  22084352.977   116054095.705 8  90431791.95346  22084352.516    22084355.705          49.000          37.0004
G14  20921746.893   109944622.131 8  85671157.24447  20921746.111    20921749.808          50.000          45.0004
G18  24835805.035   130513045.360 5 101698497.87841  24835802.652    24835807.674          33.000           8.0004
G22  22808750.710   119860842.927 7  93398090.92246  22808749.328    22808751.909          47.000          38.0004
G25  24811553.079   130385606.140 6 101599185.75243  24811552.308    24811552.876          41.000          20.0004
G31  20708205.398   108822450.536 9  84796756.30947  20708205.183    20708208.461          54.000          46.0004
G32  21584082.195   113425191.911 8  88383300.00547  21584082.149    21584087.576          52.000          45.0004
> 2017 10 22 00 05 30.0000000  0 11
G01  21871335.436   114934706.649 8  89559508.40546  21871335.272    21871341.743          48.000          41.0004
G03  24504889.331   128774069.000 6 100343454.72244  24504890.272    24504896.137          38.000          25.0004
G08  25071201.104   131750005.206 6 102662395.89643  25071201.039    25071211.018          39.000          21.0004
G10  22627497.038   118908346.753 7  92655881.13046  22627496.834    22627503.021          44.000          36.0004
G11  22086012.307   116062816.448 7  90438587.33546  22086012.033    22086015.377          47.000          37.0004
G14  20928256.290   109978827.252 8  85697810.58947  20928255.402    20928258.812          49.000          45.0004
G18  24850753.743   130591605.562 5 101759713.61942  24850752.725    24850758.399          35.000          13.0004
G22  22794393.432   119785395.638 7  93339300.84446  22794392.188    22794394.994          46.000          37.0004
G25  24804342.735   130347727.102 6 101569669.61243  24804342.238    24804352.080          37.000          20.0004
G31  20698251.462   108770136.578 9  84755992.20647  20698250.702    20698253.540          54.000          46.0004
G32  21595067.990   113482922.519 8  88428284.89547  21595067.988    21595073.310          50.000          45.0004
> 2017 10 22 00 06 00.0000000  0 11
G01  21861391.901   114882453.370 8  89518791.56146  21861391.924    21861398.628          49.000          41.0004
G03  24488141.736   128686059.443 6 100274875.85244  24488143.421    24488150.952          39.000          24.0004
G08  25085692.325   131826166.017 5 102721741.98143  25085692.100    25085703.241          35.000          20.0004
G10  22640279.021   118975515.312 7  92708220.22846  22640278.658    22640285.018          45.000          36.0004
G11  22087785.800   116072135.092 7  90445848.60946  22087785.277    22087788.430          46.000          37.0004
G14  20934810.344   110013270.465 8  85724649.45547  20934809.587    20934813.074          49.000          45.0004
G18  24865730.687   130670315.355 4 101821045.88542  24865729.076    24865736.738          29.000          13.0004
G22  22780049.035   119710019.547 7  93280566.24146  22780047.918    22780050.269          46.000          37.0004
G25  24797212.477   130310263.474 5 101540477.30243  24797212.783    24797223.160          35.000          22.0004
G31  20688402.265   108718380.086 8  84715662.47847  20688401.570    20688404.270          53.000          46.0004
G32  21606086.071   113540823.900 8  88473402.85247  21606086.281    21606091.627          52.000          45.0004
> 2017 10 22 00 06 30.0000000  0 11
G01  21851544.913   114830707.896 7  89478470.41846  21851545.106    21851551.632          47.000          41.0004
G03  24471387.687   128598021.982 6 100206275.38444  24471389.111    24471396.622          38.000          25.0004
G08  25100183.757   131902305.539 6 102781071.45843  25100182.162    25100192.985          37.000          21.0004
G10  22653106.400   119042919.658 7  92760743.08246  22653105.432    22653111.820          46.000          36.0004
G11  22089672.796   116082051.018 7  90453575.29546  22089672.477    22089675.246          47.000          37.0004
G14  20941409.602   110047950.098 8  85751672.55947  20941408.997    20941412.324          51.000          44.0004
G18  24880738.736   130749174.433 5 101882494.70742  24880737.382    24880742.409          32.000          14.0004
G22  22765719.745   119634715.982 7  93221888.15346  22765719.066    22765721.234          47.000          37.0004
G25  24790166.886   130273217.747 6 101511610.60644  24790166.024    24790173.475          40.000          25.0004
G31  20678658.853   108667183.092 9  84675768.75547  20678658.481    20678661.896          54.000          46.0004
G32  21617136.792   113598894.765 8  88518652.87247  21617136.783    21617142.104          52.000          45.0004
> 2017 10 22 00 07 00.0000000  0 10
G01  21841795.963   114779472.130 8  89438546.43746  21841795.566    21841801.664          50.000          41.0004
G03  24454632.030   128509957.566 6 100137653.75744  24454632.156    24454639.022          39.000          26.0004
G08  25114665.986   131978420.533 5 102840381.85843  25114666.151    25114677.213          35.000          20.0004
G10  22665976.873   119110559.634 7  92813449.53146  22665976.657    22665983.157          45.000          36.0004
G11  22091673.122   116092562.846 8  90461766.32446  22091672.738    22091675.967          49.000          37.0004
G14  20948053.966   110082864.740 8  85778878.78047  20948053.133    20948056.323          50.000          45.0004
G22  22751404.165   119559485.915 7  93163267.37446  22751402.800    22751405.319          46.000          37.0004
G25  24783196.968   130236592.237 6 101483071.34844  24783196.791    24783204.844          41.000          27.0004
G31  20669024.597   108616547.035 8  84636312.10147  20669023.662    20669026.291          53.000          46.0004
G32  21628218.834   113657133.622 8  88564033.79847  21628219.289    21628224.712          50.000          44.0004
> 2017 10 22 00 07 30.0000000  0 10
G01  21832142.893   114728748.032 8  89399021.16947  21832142.861    21832149.689          50.000          42.0004
G03  24437870.827   128421866.959 6 100069011.83544  24437869.211    24437874.018          41.000          27.0004
G08  25129146.067   132054508.436 6 102899671.09743  25129145.937    25129156.087          36.000          20.0004
G10  22678892.462   119178435.261 7  92866339.59346  22678892.945    22678899.463          44.000          36.0004
G11  22093786.959   116103670.045 8  90470421.26146  22093786.124    22093789.708          48.000          37.0004
G14  20954742.352   110118013.266 8  85806267.25147  20954741.561    20954745.088          52.000          45.0004
G22  22737102.249   119484330.835 7  93104704.97646  22737101.284    22737103.623          46.000          38.0004
G25  24776305.506   130200389.328 6 101454861.29743  24776305.307    24776311.060          39.000          22.0004
G31  20659494.652   108566473.716 8  84597293.94247  20659494.544    20659497.544          53.000          46.0004
G32  21639333.353   113715539.202 8  88609544.63547  21639333.401    21639338.911          51.000          45.0004
> 2017 10 22 00 08 00.0000000  0 10
G01  21822587.509   114678537.520 7  89359896.11646  21822587.449    21822594.724          47.000          41.0004
G03  24421100.339   128333751.018 6 100000350.12844  24421100.823    24421108.208          38.000          24.0004
G08  25143620.780   132130566.498 6 102958937.14343  25143618.263    25143628.452          36.000          21.0004
G10  22691855.790   119246546.367 7  92919413.16646  22691854.365    22691860.236          46.000          36.0004
G11  22096013.187   116115371.286 7  90479539.10446  22096012.828    22096016.194          45.000          37.0004
G14  20961475.007   110153394.191 8  85833836.82047  20961474.229    20961477.801          51.000          45.0004
G22  22722815.752   119409251.984 7  93046202.00246  22722814.037    22722817.216          47.000          38.0004
G25  24769500.473   130164611.206 6 101426982.18143  24769499.050    24769504.085          41.000          20.0004
G31  20650073.029   108516965.105 9  84558715.83947  20650073.098    20650076.213          54.000          46.0004
G32  21650478.754   113774110.147 8  88655184.32147  21650478.923    21650484.576          52.000          45.0004
> 2017 10 22 00 08 30.0000000  0 10
G01  21813131.772   114628842.473 8  89321172.71847  21813131.526    21813138.004          48.000          42.0004
G03  24404327.111   128245610.584 6  99931669.42644  24404327.350    24404334.360          39.000          26.0004
G08  25158086.132   132206592.099 5 103018177.90542  25158084.731    25158095.807          35.000          17.0004
G10  22704860.489   119314892.815 7  92972670.12745  22704859.957    22704866.470          46.000          35.0004
G11  22098353.489   116127665.780 8  90489119.22246  22098352.415    22098355.797          49.000          37.0004
G14  20968251.827   110189005.889 8  85861586.20447  20968251.069    20968254.388          49.000          45.0004
G22  22708543.295   119334250.706 7  92987759.45646  22708542.233    22708544.427          47.000          37.0004
G25  24762769.558   130129260.300 6 101399436.10144  24762769.910    24762779.516          39.000          24.0004
G31  20640760.827   108468022.663 8  84520578.88347  20640760.376    20640762.873          53.000          46.0004
G32  21661655.738   113832845.101 8  88700951.80947  21661655.735    21661661.458          52.000          45.0004
> 2017 10 22 00 09 00.0000000  0 10
G01  21803772.657   114579664.750 7  89282852.44446  21803772.845    21803779.822          46.000          41.0004
G03  24387548.636   128157446.577 6  99862970.20344  24387550.500    24387556.402          38.000          25.0004
G08  25172543.879   132282581.919 5 103077390.77243  25172545.309    25172558.052          34.000          20.0004
G10  22717909.610   119383474.514 7  93026110.37846  22717910.667    22717917.179          44.000          36.0004
G11  22100805.685   116140552.440 8  90499160.74846  22100804.602    22100808.287          49.000          38.0004
G14  20975072.332   110224846.976 8  85889514.32547  20975071.308    20975074.760          51.000          45.0004
G22  22694285.098   119259327.839 7  92929378.03746  22694283.967    22694286.786          47.000          37.0004
G25  24756126.182   130094338.760 6 101372224.63244  24756125.283    24756133.696          41.000          25.0004
G31  20631554.533   108419648.097 8  84482884.43347  20631554.481    20631557.620          52.000          46.0004
G32  21672863.438   113891742.668 8  88746846.00747  21672863.509    21672869.289          51.000          44.0004
> 2017 10 22 00 09 30.0000000  0 10
G01  21794513.402   114531006.068 7  89244936.62746  21794513.285    21794520.197          46.000          41.0004
G03  24370771.846   128069259.473 7  99794253.22444  24370769.475    24370776.583          42.000          27.0004
G08  25186999.474   132358533.176 5 103136573.60043  25186998.836    25187009.540          35.000          18.0004
G10  22731007.426   119452291.240 7  93079733.77345  22731006.371    22731012.754          45.000          35.0004
G11  22103370.086   116154030.038 8  90509662.75646  22103369.542    22103372.988          48.000          37.0004
G14  20981935.852   110260915.963 8  85917620.03547  20981935.054    20981938.516          51.000          45.0004
G22  22680043.898   119184484.636 7  92871058.65446  22680042.796    22680044.820          46.000          38.0004
G25  24749562.145   130059848.966 6 101345349.49344  24749562.058    24749569.758          41.000          24.0004
G31  20622457.148   108371842.854 8  84445633.63047  20622457.431    20622460.368          52.000          46.0004
G32  21684101.897   113950801.459 8  88792865.82347  21684102.072    21684107.804          51.000          45.0004
> 2017 10 22 00 10 00.0000000  0 10
G01  21785353.583   114482868.328 7  89207426.72547  21785353.420    21785360.431          47.000          42.0004
G03  24353979.913   127981050.394 6  99725518.94444  24353981.210    24353990.209          37.000          24.0004
G08  25201444.969   132434443.410 6 103195724.40442  25201444.722    25201453.190          36.000          17.0004
G10  22744145.990   119521342.754 7  93133540.13245  22744146.280    22744152.675          45.000          35.0004
G11  22106047.996   116168097.282 8  90520624.22946  22106046.473    22106049.835          49.000          37.0004
G14  20988842.660   110297211.686 8  85945902.41747  20988841.838    20988845.405          50.000          45.0004
G22  22665816.576   119109722.348 8  92812802.35646  22665815.178    22665818.294          48.000          38.0004
G25  24743083.026   130025793.092 7 101318812.42143  24743082.062    24743088.656          42.000          23.0004
G31  20613469.487   108324608.631 8  84408827.75547  20613469.430    20613471.886          52.000          46.0004
G32  21695371.054   114010020.127 8  88839010.22347  21695371.144    21695376.797          52.000          44.0004
> 2017 10 22 00 10 30.0000000  0 10
G01  21776292.285   114435253.295 8  89170324.12747  21776292.566    21776298.945          48.000          42.0004
G03  24337195.147   127892820.197 6  99656768.18344  24337194.979    24337200.496          38.000          29.0004
G08  25215883.076   132510309.567 6 103254841.01243  25215881.753    25215890.569          39.000          18.0004
G10  22757330.056   119590629.050 7  93187529.40345  22757331.034    22757337.490          44.000          35.0004
G11  22108836.283   116182753.273 7  90532044.46446  22108835.386    22108838.930          47.000          37.0004
G14  20995792.774   110333732.594 8  85974360.26947  20995791.668    20995795.058          51.000          45.0004
G22  22651606.586   119035042.546 8  92754610.31646  22651604.957    22651606.930          48.000          39.0004
G25  24736678.023   129992173.292 5 101292615.23243  24736680.858    24736689.444          35.000          18.0004
G31  20604589.625   108277947.009 9  84372468.07147  20604589.767    20604592.594          54.000          46.0004
G32  21706670.333   114069397.369 8  88885278.18647  21706670.421    21706675.836          51.000          44.0004
> 2017 10 22 00 11 00.0000000  0 10
G01  21767331.425   114388162.752 8  89133630.23847  21767331.345    21767338.463          49.000          42.0004
G03  24320402.124   127804569.496 6  99588001.52344  24320400.687    24320406.083          41.000          26.0004
G08  25230310.966   132586129.148 6 103313921.18543  25230308.930    25230318.954          37.000          18.0004
G10  22770561.451   119660149.870 7  93241701.44445  22770560.340    22770566.892          45.000          35.0004
G11  22111736.681   116197996.950 8  90543922.64146  22111736.004    22111739.667          49.000          37.0004
G14  21002784.685   110370477.202 8  86002992.42947  21002783.873    21002787.314          51.000          44.0004
G22  22637409.779   118960446.459 7  92696483.51346  22637408.955    22637411.557          46.000          38.0004
G25  24730372.235   129958991.865 6 101266759.62743  24730370.032    24730375.669          41.000          18.0004
G31  20595819.875   108231859.458 9  84336555.71947  20595819.548    20595822.467          54.000          46.0004
G32  21717999.258   114128931.808 8  88931668.63847  21717999.487    21718004.776          50.000          44.0004
> 2017 10 22 00 11 30.0000000  0 10
G01  21758470.988   114341598.542 8  89097346.46247  21758471.006    21758476.938          49.000          42.0004
G03  24303600.362   127716299.358 5  99519219.77044  24303601.152    24303611.299          35.000          27.0004
G08  25244726.247   132661899.272 5 103372962.86143  25244726.953    25244737.830          32.000          20.0004
G10  22783834.297   119729905.086 7  93296056.14145  22783834.418    22783840.893          45.000          35.0004
G11  22114748.435   116213826.937 7  90556257.67046  22114748.477    22114752.082          47.000          37.0004
G14  21009819.038   110407444.127 8  86031797.81647  21009818.328    21009821.821          49.000          45.0004
G22  22623232.642   118885935.408 7  92638422.98046  22623230.829    22623232.538          47.000          38.0004
G25  24724142.393   129926251.212 7 101241247.40144  24724141.048    24724146.832          44.000          26.0004
G31  20587159.455   108186347.818 9  84301092.11947  20587159.131    20587161.708          54.000          46.0004
G32  21729358.454   114188622.166 8  88978180.58947  21729358.232    21729363.738          51.000          45.0004
> 2017 10 22 00 12 00.0000000  0 10
G01  21749710.155   114295562.304 8  89061474.09547  21749710.033    21749717.153          50.000          42.0004
G03  24286803.386   127628010.733 6  99450423.40544  24286803.446    24286808.772          40.000          28.0004
G08  25259137.732   132737617.031 6 103431963.79542  25259135.870    25259146.549          37.000          17.0004
G10  22797153.131   119799894.526 7  93350593.33445  22797153.035    22797159.315          45.000          35.0004
G11  22117873.230   116230242.164 8  90569048.75546  22117872.362    22117875.691          48.000          37.0004
G14  21016895.682   110444632.144 8  86060775.48747  21016895.069    21016898.514          51.000          45.0004
G22  22609068.241   118811510.507 7  92580429.57546  22609067.359    22609069.862          47.000          37.0004
G25  24717994.975   129893953.307 7 101216080.19144  24717994.323    24718001.443          42.000          27.0004
G31  20578608.630   108141413.192 9  84266078.14747  20578608.123    20578610.851          54.000          46.0004
G32  21740746.623   114248467.077 8  89024812.97047  21740746.291    21740751.770          51.000          45.0004
> 2017 10 22 00 12 30.0000000  0 10
G01  21741050.564   114250055.737 8  89026014.46947  21741050.525    21741057.197          50.000          42.0004
G03  24269998.040   127539704.138 6  99381613.28244  24269995.955    24270007.152          39.000          27.0004
G08  25273534.398   132813279.501 6 103490921.57443  25273534.544    25273545.041          36.000          18.0004
G10  22810516.825   119870117.868 7  93405312.81545  22810516.237    22810522.409          44.000          34.0004
G11  22121107.840   116247241.323 7  90582294.83646  22121107.005    22121110.629          46.000          37.0004
G14  21024014.204   110482039.535 8  86089924.09447  21024013.326    21024016.872          50.000          45.0004
G22  22594923.800   118737172.891 8  92522504.20346  22594922.040    22594923.888          49.000          38.0004
G25  24711929.859   129862100.026 5 101191259.55443  24711928.799    24711939.048          34.000          21.0004
G31  20570167.812   108097056.975 8  84231514.88647  20570167.528    20570170.289          53.000          47.0004
G32  21752163.893   114308465.185 8  89071564.72747  21752163.686    21752168.993          53.000          44.0004
> 2017 10 22 00 13 00.0000000  0 10
G01  21732491.908   114205080.790 8  88990969.08047  21732492.105    21732498.617          50.000          42.0004
G03  24253190.063   127451381.085 6  99312790.00444  24253191.447    24253196.509          38.000          28.0004
G08  25287918.981   132888884.125 5 103549834.35943  25287920.732    25287931.486          34.000          18.0004
G10  22823923.403   119940575.199 7  93460214.60045  22823923.688    22823930.016          44.000          35.0004
G11  22124452.551   116264823.228 7  90595995.02446  22124452.577    22124456.254          47.000          37.0004
G14  21031174.099   110519664.959 8  86119242.59747  21031173.328    21031176.676          50.000          45.0004
G22  22580793.752   118662924.083 7  92464648.02846  22580792.568    22580795.359          47.000          38.0004
G25  24705954.965   129830694.000 6 101166787.41243  24705954.245    24705962.758          39.000          22.0004
G31  20561837.490   108053281.082 9  84197403.82447  20561837.237    20561839.980          54.000          46.0004
G32  21763610.121   114368615.381 8  89118435.00647  21763609.946    21763615.247          51.000          44.0004
> 2017 10 22 00 13 30.0000000  0 10
G01  21724034.968   114160638.873 8  88956339.05447  21724034.951    21724041.610          50.000          42.0004
G03  24236381.141   127363041.952 6  99243954.44244  24236381.215    24236386.750          40.000          27.0004
G08  25302299.695   132964428.293 6 103608699.98343  25302297.018    25302306.988          37.000          18.0004
G10  22837376.242   120011266.003 7  93515298.32245  22837375.676    22837382.510          45.000          35.0004
G11  22127909.918   116282986.077 8  90610147.87446  22127908.848    22127912.658          49.000          37.0004
G14  21038374.995   110557506.975 8  86148729.86847  21038374.310    21038377.853          51.000          45.0004
G22  22566681.274   118588765.248 7  92406861.97146  22566680.624    22566682.795          46.000          38.0004
G25  24700065.099   129799737.128 6 101142665.14443  24700064.394    24700070.430          40.000          22.0004
G31  20553617.295   108010086.724 8  84163745.90747  20553617.369    20553620.158          53.000          46.0004
G32  21775084.486   114428916.103 8  89165422.57147  21775084.751    21775090.127          51.000          44.0004
> 2017 10 22 00 14 00.0000000  0  9
G01  21715679.497   114116731.840 8  88922125.79647  21715679.702    21715686.406          48.000          42.0004
G03  24219566.129   127274687.877 6  99175107.11744  24219565.551    24219573.924          40.000          27.0004
G10  22850873.016   120082190.247 7  93570563.96345  22850872.351    22850878.263          46.000          35.0004
G11  22131475.430   116301728.957 7  90624752.70946  22131475.377    22131479.184          46.000          37.0004
G14  21045617.608   110595564.492 8  86178385.07047  21045616.517    21045620.031          50.000          45.0004
G22  22552587.429   118514698.324 7  92349147.50546  22552586.253    22552588.297          47.000          38.0004
G25  24694259.495   129769231.579 6 101118894.58843  24694260.168    24694266.008          41.000          23.0004
G31  20545509.131   107967475.297 8  84130542.22447  20545508.752    20545511.508          53.000          46.0004
G32  21786588.372   114489366.232 8  89212526.57047  21786588.190    21786593.284          50.000          44.0004
> 2017 10 22 00 14 30.0000000  0  9
G01  21707426.256   114073361.410 7  88888330.69047  21707426.442    21707433.239          46.000          42.0004
G03  24202752.314   127186320.005 6  99106249.02944  24202752.196    24202757.304          41.000          27.0004
G10  22864412.627   120153347.837 7  93626011.41545  22864412.825    22864419.252          43.000          34.0004
G11  22135153.143   116321050.762 8  90639808.65946  22135152.378    22135156.151          48.000          37.0004
G14  21052900.136   110633836.093 8  86208207.08847  21052899.420    21052902.841          50.000          45.0004
G22  22538510.290   118440723.793 8  92291505.06646  22538509.124    22538511.868          48.000          39.0004
G25  24688541.768   129739179.567 6 101095477.45844  24688540.869    24688548.653          41.000          25.0004
G31  20537512.072   107925448.570 8  84097794.13647  20537511.536    20537514.259          53.000          47.0004
G32  21798119.394   114549964.564 8  89259746.04547  21798119.464    21798124.883          51.000          44.0004
> 2017 10 22 00 15 00.0000000  0  9
G01  21699276.174   114030529.058 7  88854954.84147  21699276.070    21699282.365          47.000          42.0004
G03  24185933.529   127097938.832 7  99037380.63944  24185932.901    24185938.002          42.000          27.0004
G10  22877998.704   120224738.348 7  93681640.35645  22877998.358    22878004.696          45.000          34.0004
G11  22138939.683   116340949.856 7  90655314.44446  22138939.118    22138942.894          46.000          37.0004
G14  21060223.198   110672320.150 8  86238194.65447  21060222.589    21060226.081          50.000          44.0004
G22  22524451.342   118366843.055 7  92233935.69346  22524449.918    22524452.398          46.000          39.0004
G25  24682909.468   129709582.924 6 101072415.17444  24682908.274    24682916.310          39.000          26.0004
G31  20529625.157   107884007.237 8  84065502.20547  20529625.302    20529628.173          52.000          46.0004
G32  21809679.046   114610709.639 8  89307079.87147  21809678.965    21809684.377          49.000          43.0004
> 2017 10 22 00 15 30.0000000  0  9
G01  21691228.441   113988236.434 8  88821999.57547  21691228.003    21691234.532          49.000          42.0004
G03  24169108.618   127009545.670 6  98968502.84544  24169109.233    24169121.143          38.000          27.0004
G10  22891627.672   120296361.553 7  93737450.63445  22891627.822    22891633.943          45.000          35.0004
G11  22142835.485   116361424.913 7  90671269.03846  22142835.467    22142838.933          47.000          37.0004
G14  21067586.933   110711015.334 8  86268346.73847  21067586.190    21067589.398          52.000          45.0004
G22  22510410.610   118293057.719 8  92176440.67146  22510409.197    22510411.637          48.000          39.0004
G25  24677363.995   129680443.764 6 101049709.44544  24677362.433    24677371.849          40.000          24.0004
G31  20521850.785   107843152.732 9  84033667.54747  20521850.870    20521853.680          54.000          47.0004
G32  21821265.315   114671600.227 8  89354527.08747  21821265.906    21821271.359          52.000          44.0004
> 2017 10 22 00 16 00.0000000  0  9
G01  21683282.431   113946485.093 8  88789466.07847  21683282.470    21683289.198          49.000          42.0004
G03  24152288.709   126921141.207 6  98899616.26444  24152289.443    24152291.979          40.000          26.0004
G10  22905302.078   120368217.219 7  93793442.02745  22905301.324    22905307.698          45.000          35.0004
G11  22146841.014   116382474.417 8  90687671.24646  22146840.966    22146844.391          48.000          37.0004
G14  21074990.224   110749920.041 8  86298662.09747  21074989.388    21074992.965          50.000          45.0004
G22  22496388.107   118219369.288 7  92119021.14146  22496386.770    22496389.097          47.000          39.0004
G25  24671906.078   129651764.070 6 101027361.68244  24671906.142    24671913.003          40.000          25.0004
G31  20514188.793   107802886.567 8  84002291.33147  20514188.680    20514191.235          53.000          46.0004
G32  21832880.342   114732634.979 8  89402086.63847  21832880.538    21832885.897          51.000          43.0004
> 2017 10 22 00 16 30.0000000  0  9
G01  21675440.729   113905276.792 8  88757355.71747  21675440.999    21675447.744          50.000          42.0004
G03  24135463.644   126832726.632 6  98830721.84844  24135463.976    24135472.474          41.000          29.0004
G10  22919019.961   120440305.256 7  93849614.52245  22919019.185    22919025.949          46.000          35.0004
G11  22150956.272   116404097.181 7  90704520.15346  22150955.763    22150958.808          47.000          37.0004
G14  21082433.068   110789033.597 8  86329140.18247  21082432.364    21082435.915          49.000          44.0004
G22  22482384.461   118145779.120 8  92061678.20246  22482382.927    22482385.274          48.000          39.0004
G25  24666536.008   129623546.109 6 101005373.68844  24666536.611    24666543.218          40.000          25.0004
G31  20506638.428   107763210.046 9  83971374.57147  20506638.427    20506641.090          54.000          47.0004
G32  21844522.271   114793812.856 8  89449757.71347  21844522.229    21844527.546          50.000          43.0004
> 2017 10 22 00 17 00.0000000  0  9
G01  21667702.693   113864612.945 7  88725669.61947  21667702.700    21667709.416          47.000          42.0004
G03  24118636.705   126744302.822 6  98761820.20544  24118636.734    24118642.909          40.000          26.0004
G10  22932780.415   120512625.275 7  93905967.76645  22932781.375    22932787.685          44.000          34.0004
G11  22155179.628   116426291.431 7  90721814.38446  22155179.233    22155182.225          46.000          37.0004
G14  21089915.740   110828354.120 8  86359779.54547  21089914.977    21089918.377          51.000          44.0004
G22  22468399.184   118072288.367 8  92004412.70746  22468398.201    22468400.299          48.000          39.0004
G25  24661255.890   129595791.643 6 100983746.89443  24661253.630    24661261.039          40.000          23.0004
G31  20499200.430   107724124.186 9  83940918.08047  20499200.381    20499203.450          54.000          47.0004
G32  21856190.994   114855132.457 8  89497539.22047  21856190.900    21856196.283          51.000          43.0004
> 2017 10 22 00 17 30.0000000  0  9
G01  21660068.940   113824495.178 8  88694409.01947  21660068.787    21660075.352          50.000          42.0004
G03  24101810.020   126655870.840 6  98692912.18445  24101810.383    24101818.279          41.000          30.0004
G10  22946588.685   120585177.080 7  93962501.62145  22946588.047    22946593.984          45.000          34.0004
G11  22159512.001   116449055.957 7  90739552.98546  22159511.040    22159514.203          47.000          37.0004
G14  21097437.292   110867880.024 8  86390578.95047  21097436.377    21097439.871          50.000          44.0004
G22  22454433.684   117998898.393 7  91947225.75346  22454432.475    22454434.683          47.000          38.0004
G25  24656063.059   129568502.724 7 100962482.81943  24656061.478    24656068.946          42.000          22.0004
G31  20491876.009   107685630.203 9  83910922.78347  20491875.412    20491878.247          54.000          46.0004
G32  21867886.209   114916592.567 8  89545430.22147  21867886.294    21867891.858          50.000          43.0004
> 2017 10 22 00 18 00.0000000  0  9
G01  21652539.390   113784924.956 8  88663575.07747  21652539.237    21652545.534          48.000          43.0004
G03  24084979.148   126567431.540 6  98623998.49344  24084979.429    24084987.138          40.000          27.0004
G10  22960438.181   120657960.364 7  94019215.86645  22960437.755    22960444.067          46.000          34.0004
G11  22163951.845   116472388.965 8  90757734.56146  22163951.152    22163954.575          48.000          37.0004
G14  21104997.696   110907610.538 8  86421537.78947  21104996.979    21105000.519          51.000          45.0004
G22  22440486.535   117925610.671 7  91890118.46346  22440485.752    22440488.423          47.000          38.0004
G25  24650958.466   129541681.329 6 100941583.07444  24650957.136    24650965.385          40.000          25.0004
G31  20484663.544   107647729.633 9  83881389.87747  20484663.299    20484665.859          54.000          47.0004
G32  21879607.869   114978191.953 8  89593429.73647  21879608.216    21879613.819          51.000          44.0004
> 2017 10 22 00 18 30.0000000  0  9
G01  21645113.184   113745903.778 8  88633168.96447  21645113.374    21645119.941          49.000          43.0004
G03  24068149.603   126478986.059 6  98555079.96344  24068149.345    24068155.473          39.000          28.0004
G10  22974331.333   120730974.905 7  94076110.28245  22974331.716    22974338.174          44.000          33.0004
G11  22168499.764   116496289.030 7  90776358.00246  22168498.987    22168502.883          47.000          37.0004
G14  21112596.667   110947544.158 8  86452654.89447  21112596.140    21112599.517          50.000          45.0004
G22  22426560.788   117852426.489 7  91833091.86246  22426559.759    22426561.758          47.000          38.0004
G25  24645943.005   129515329.330 6 100921049.12144  24645942.662    24645950.859          40.000          26.0004
G31  20477564.123   107610423.525 9  83852320.20147  20477563.969    20477566.728          54.000          47.0004
G32  21891356.558   115039929.367 8  89641536.80547  21891356.574    21891361.960          52.000          43.0004
> 2017 10 22 00 19 00.0000000  0  9
G01  21637792.755   113707433.277 8  88603191.95547  21637792.826    21637798.975          50.000          43.0004
G03  24051316.904   126390535.399 6  98486157.41044  24051317.814    24051325.947          39.000          29.0004
G10  22988270.889   120804220.513 7  94133184.77745  22988270.466    22988276.682          44.000          34.0004
G11  22173155.165   116520754.724 7  90795422.18346  22173154.476    22173158.595          46.000          37.0004
G14  21120234.630   110987679.483 8  86483929.17547  21120233.648    21120237.094          50.000          45.0004
G22  22412654.320   117779347.415 8  91776147.15046  22412653.124    22412655.013          48.000          39.0004
G25  24641018.462   129489448.859 6 100900882.57044  24641017.251    24641025.690          41.000          25.0004
G31  20470578.068   107573712.830 9  83823714.47947  20470577.936    20470580.958          54.000          47.0004
G32  21903130.558   115101803.721 8  89689750.58247  21903130.823    21903136.316          50.000          43.0004
> 2017 10 22 00 19 30.0000000  0  9
G01  21630577.303   113669514.681 8  88573644.97947  21630577.094    21630583.819          48.000          43.0004
G03  24034484.611   126302080.427 6  98417231.54044  24034484.802    24034490.630          41.000          27.0004
G10  23002252.112   120877696.638 7  94190438.88745  23002252.234    23002258.471          44.000          33.0004
G11  22177918.636   116545784.318 7  90814925.76246  22177917.503    22177921.705          47.000          37.0004
G14  21127909.957   111028014.847 8  86515359.33547  21127909.256    21127912.559          50.000          44.0004
G22  22398768.389   117706374.695 8  91719285.31646  22398767.113    22398769.368          48.000          40.0004
G25  24636183.531   129464041.449 6 100881084.66344  24636183.291    24636191.250          41.000          25.0004
G31  20463706.176   107537598.929 8  83795573.79447  20463705.980    20463708.805          53.000          47.0004
G32  21914930.919   115163813.581 8  89738069.94647  21914930.903    21914936.364          51.000          43.0004
> 2017 10 22 00 20 00.0000000  0  9
G01  21623466.896   113632149.659 8  88544529.38047  21623466.659    21623473.328          50.000          43.0004
G03  24017650.611   126213622.404 6  98348303.24944  24017651.190    24017659.467          38.000          28.0004
G10  23016278.213   120951403.323 7  94247872.63045  23016278.411    23016284.905          43.000          34.0004
G11  22182788.274   116571376.198 7  90834867.49646  22182787.765    22182791.508          46.000          37.0004
G14  21135623.179   111068549.111 8  86546944.47947  21135622.505    21135626.129          51.000          44.0004
G22  22384901.907   117633509.674 8  91662507.40846  22384901.074    22384903.537          48.000          39.0004
G25  24631439.125   129439109.357 6 100861657.06243  24631437.934    24631443.661          39.000          22.0004
G31  20456948.321   107502082.955 9  83767899.01347  20456947.736    20456950.293          54.000          47.0004
G32  21926756.914   115225957.964 8  89786494.12347  21926756.608    21926762.141          50.000          43.0004
> 2017 10 22 00 20 30.0000000  0  9
G01  21616462.608   113595339.502 8  88515846.13047  21616462.261    21616468.651          50.000          43.0004
G03  24000818.151   126125162.236 6  98279373.32944  24000819.020    24000825.358          41.000          29.0004
G10  23030348.934   121025340.058 7  94305485.64545  23030348.058    23030354.104          44.000          34.0004
G11  22187765.434   116597528.786 7  90855246.13746  22187764.455    22187767.994          47.000          37.0004
G14  21143373.994   111109280.811 8  86578683.47047  21143373.553    21143377.086          50.000          45.0004
G22  22371057.736   117560753.952 8  91605814.66246  22371056.534    22371058.300          48.000          40.0004
G25  24626784.564   129414654.235 6 100842601.12143  24626782.089    24626788.931          39.000          19.0004
G31  20450302.840   107467165.736 8  83740690.79547  20450302.975    20450305.604          52.000          47.0004
G32  21938607.822   115288235.550 8  89835022.09847  21938607.701    21938613.080          50.000          43.0004
> 2017 10 22 00 21 00.0000000  0  9
G01  21609563.327   113559085.648 8  88487596.36247  21609563.253    21609569.522          49.000          43.0004
G03  23983986.121   126036700.945 7  98210442.49645  23983985.333    23983992.653          42.000          30.0004
G10  23044461.364   121099506.561 7  94363277.70745  23044461.251    23044467.804          45.000          33.0004
G11  22192847.283   116624240.287 8  90876060.30046  22192847.486    22192850.801          48.000          37.0004
G14  21151162.767   111150208.720 8  86610575.34947  21151161.875    21151165.386          51.000          44.0004
G22  22357233.290   117488108.804 7  91549208.05946  22357232.095    22357235.069          47.000          40.0004
G25  24622222.507   129390677.996 6 100823918.37143  24622220.962    24622227.940          40.000          20.0004
G31  20443772.217   107432848.403 9  83713950.04047  20443772.230    20443775.224          54.000          47.0004
G32  21950483.252   115350645.143 8  89883652.93847  21950483.797    21950489.226          50.000          43.0004
> 2017 10 22 00 21 30.0000000  0  9
G01  21602770.595   113523389.374 8  88459781.06747  21602770.502    21602777.016          48.000          43.0004
G03  23967152.665   125948239.582 6  98141511.65444  23967151.826    23967158.285          41.000          28.0004
G10  23058619.033   121173902.419 7  94421248.48645  23058618.493    23058624.648          45.000          33.0004
G11  22198037.692   116651509.245 7  90897308.84946  22198036.435    22198039.972          46.000          37.0004
G14  21158987.902   111191331.632 8  86642619.17747  21158987.366    21158990.820          49.000          44.0004
G22  22343430.930   117415575.637 8  91492688.72546  22343429.854    22343431.824          49.000          40.0004
G25  24617752.978   129367182.342 6 100805610.13443  24617750.751    24617758.015          41.000          23.0004
G31  20437356.693   107399131.868 8  83687677.43547  20437356.431    20437359.277          53.000          47.0004
G32  21962385.118   115413185.502 8  89932385.66847  21962384.976    21962390.276          51.000          43.0004
> 2017 10 22 00 22 00.0000000  0  9
G01  21596084.414   113488252.187 8  88432401.44147  21596084.266    21596090.518          50.000          43.0004
G03  23950316.656   125859779.231 6  98072581.57044  23950318.060    23950324.500          40.000          29.0004
G10  23072819.019   121248527.505 7  94479397.88545  23072819.111    23072825.436          43.000          33.0004
G11  22203331.265   116679333.744 7  90918990.27446  22203331.229    22203334.929          47.000          37.0004
G14  21166850.504   111232648.337 8  86674814.01247  21166849.576    21166853.217          50.000          44.0004
G22  22329649.115   117343156.157 7  91436257.97146  22329648.063    22329651.409          47.000          40.0004
G25  24613372.886   129344169.302 6 100787677.91444  24613372.505    24613379.561          41.000          26.0004
G31  20431056.234   107366017.208 9  83661873.81647  20431055.271    20431057.862          54.000          47.0004
G32  21974310.613   115475855.602 8  89981219.49547  21974310.704    21974315.993          50.000          43.0004
> 2017 10 22 00 22 30.0000000  0  9
G01  21589504.565   113453675.296 8  88405458.41047  21589504.278    21589510.743          51.000          43.0004
